City_ID,City,Lat,Lng,Max Temp,Humidity,Cloudiness,Wind Speed,Country,Date
0,waitangi,-43.9535,-176.5597,284.72,89,94,1.34,NZ,1686622168
1,vecpiebalga,57.0609,25.8162,281.5,76,2,2.1,LV,1686622169
2,adamstown,-25.066,-130.1015,293.56,64,28,3.45,PN,1686622169
3,namibe,-15.1961,12.1522,289.02,80,4,1.59,AO,1686622169
4,aguazul,5.1728,-72.5471,296.89,95,99,1.0,CO,1686622169
5,acarau,-2.8877,-40.1183,298.22,85,0,5.11,BR,1686622106
6,port elizabeth,-33.9611,25.6149,285.37,72,100,1.34,ZA,1686622170
7,margaret river,-33.955,115.076,288.81,69,100,7.18,AU,1686622170
8,torteval,49.4333,-2.65,287.58,100,40,2.06,GG,1686622170
9,brisas de zicatela,15.8369,-97.0419,303.44,66,40,1.54,MX,1686622171
10,yellowknife,62.4541,-114.3725,280.87,67,100,3.04,CA,1686622171
11,sinabang,2.4803,96.3801,301.66,72,25,0.67,ID,1686622171
12,paoua,7.2427,16.4406,292.73,96,55,1.45,CF,1686622171
13,chibougamau,49.9168,-74.3659,289.57,59,100,2.13,CA,1686622172
14,blackmans bay,-43.0,147.32,286.6,77,100,3.35,AU,1686621743
15,port lincoln,-34.7263,135.8744,287.08,57,91,10.43,AU,1686622172
16,kruisfontein,-34.0033,24.7314,283.09,69,86,4.82,ZA,1686622172
17,alderetes,-26.8167,-65.1333,280.1,93,75,2.57,AR,1686622173
18,selfoss,63.9331,-20.9971,281.4,80,3,2.18,IS,1686622173
19,tindouf,27.6711,-8.1474,291.77,78,0,10.54,DZ,1686622173
20,gisborne,-38.6533,178.0042,285.63,73,38,7.7,NZ,1686622174
21,thompson,55.7435,-97.8558,293.42,50,99,3.78,CA,1686622174
22,qaqortoq,60.7184,-46.0356,279.86,76,100,2.71,GL,1686622175
23,wau,-7.3378,146.7165,299.66,65,56,1.72,PG,1686622175
24,abuja,9.0579,7.4951,295.31,90,100,0.84,NG,1686622176
25,port-aux-francais,-49.3492,70.2194,279.44,89,100,13.9,TF,1686622176
26,ola,59.5782,151.2982,292.12,91,89,5.16,RU,1686622176
27,tavrichanka,43.3255,131.8626,291.92,73,94,1.57,RU,1686622177
28,ilulissat,69.2198,-51.0986,275.31,75,75,0.0,GL,1686622177
29,borogontsy,62.6706,131.1634,283.28,57,100,1.75,RU,1686622177
30,tranovaho,-25.3,44.9667,289.75,97,12,3.16,MG,1686622177
31,warmbad,-28.45,18.7333,280.13,81,0,2.45,NA,1686622178
32,alice springs,-23.6975,133.8836,291.02,31,0,4.63,AU,1686622178
33,tazacorte,28.6419,-17.9339,294.53,85,100,5.14,ES,1686622178
34,nelson bay,-32.7204,152.144,289.72,83,100,3.13,AU,1686622165
35,bredasdorp,-34.5322,20.0403,287.1,73,67,11.33,ZA,1686622179
36,ilha de mocambique,-15.0342,40.7358,297.11,67,0,0.6,MZ,1686622179
37,sao vicente,32.7967,-17.0432,292.26,85,93,1.18,PT,1686622179
38,olonkinbyen,70.9221,-8.7187,275.2,87,100,8.86,SJ,1686622179
39,aral,40.5418,81.2657,304.28,18,36,6.08,CN,1686622180
40,wailua homesteads,22.0724,-159.3768,300.48,78,20,6.69,US,1686622180
41,grootfontein,-19.5667,18.1167,280.6,28,0,3.65,NA,1686622180
42,vorgashor,67.5836,63.794,280.14,57,98,5.14,RU,1686622181
43,susuman,62.7808,148.154,287.81,73,100,3.63,RU,1686622181
44,alaghsas,17.0187,8.0168,304.28,36,92,2.07,NE,1686622181
45,jamestown,-15.9387,-5.7168,292.19,68,89,10.31,SH,1686622182
46,isafjordur,66.0748,-23.135,280.72,81,53,3.2,IS,1686622183
47,ayod,8.1219,31.409,298.3,63,93,0.99,SS,1686622183
48,puerto natales,-51.7299,-72.506,274.98,95,100,2.02,CL,1686622183
49,carnarvon,-24.8826,113.6571,290.59,34,0,7.31,AU,1686622183
50,guiuan,11.0327,125.7223,302.49,72,100,4.5,PH,1686622090
51,miri,4.3993,113.9916,303.67,62,46,0.46,MY,1686622184
52,bilibino,68.0546,166.4372,281.93,88,100,7.1,RU,1686622184
53,ladario,-19.0047,-57.6017,283.63,84,100,2.77,BR,1686622185
54,puerto ayora,-0.7402,-90.3138,299.86,91,79,3.13,EC,1686622185
55,edinburgh of the seven seas,-37.0676,-12.3116,288.25,90,100,8.37,SH,1686622185
56,chulym,55.0997,80.9572,285.93,57,100,2.04,RU,1686622035
57,ushuaia,-54.8108,-68.3159,278.29,75,20,10.8,AR,1686622186
58,ust-nera,64.5697,143.237,280.55,91,100,4.37,RU,1686622186
59,luanda,-8.8368,13.2343,296.15,83,75,1.03,AO,1686622186
60,hayma',19.9593,56.2758,307.12,13,100,4.97,OM,1686622186
61,lubang,13.8584,120.124,302.28,78,60,8.7,PH,1686622187
62,longyearbyen,78.22,15.65,276.21,75,75,5.14,SJ,1686621604
63,punta arenas,-53.1548,-70.9113,279.27,70,20,6.17,CL,1686622123
64,north battleford,52.7765,-108.2975,297.35,59,14,2.38,CA,1686622044
65,albany,-35.0269,117.8837,288.18,75,96,7.46,AU,1686622187
66,stanley,-51.6938,-57.857,276.31,97,100,9.28,FK,1686622188
67,princeville,45.7668,-61.2985,287.77,80,12,1.0,CA,1686622188
68,nago,26.615,127.9854,301.39,97,100,6.32,JP,1686622188
69,fish town,5.1974,-7.8758,295.35,90,95,1.46,LR,1686622189
70,east london,-33.0153,27.9116,289.35,46,89,8.5,ZA,1686622189
71,sokoni,-6.4333,39.55,299.11,69,0,5.85,TZ,1686622189
72,bandarbeyla,9.4942,50.8122,299.71,73,100,13.08,SO,1686622190
73,tlacolula de matamoros,16.9547,-96.4759,298.49,55,26,2.35,MX,1686622190
74,tangalle,6.0234,80.7974,300.28,79,100,5.65,LK,1686622190
75,grytviken,-54.2811,-36.5092,270.54,85,94,4.04,GS,1686622190
76,revda,67.9371,34.5615,284.44,89,100,3.55,RU,1686622191
77,tiksi,71.69,128.8647,275.33,96,100,3.0,RU,1686622191
78,labrador city,52.9463,-66.9114,286.98,47,36,0.82,CA,1686622191
79,onguday,50.75,86.15,288.91,59,10,1.02,RU,1686622191
80,bethel,60.7922,-161.7558,281.17,93,100,10.29,US,1686622192
81,invercargill,-46.4,168.35,284.66,83,72,1.82,NZ,1686622192
82,vilyuysk,63.7468,121.6334,287.97,31,1,5.37,RU,1686622192
83,gaspe,48.8334,-64.4819,288.37,73,86,1.73,CA,1686622192
84,villa alberto andres alvarado aramburo,27.6444,-113.3847,293.42,54,57,6.88,MX,1686622192
85,lebu,-37.6095,-73.6536,281.24,74,0,6.4,CL,1686622077
86,vilyuchinsk,52.9311,158.4047,297.3,46,0,1.56,RU,1686622193
87,iqaluit,63.747,-68.5173,273.76,69,100,4.47,CA,1686622193
88,college,64.8569,-147.8028,290.7,44,75,4.12,US,1686622121
89,bouarfa,32.5338,-1.9621,294.08,54,0,6.17,MA,1686622194
90,klyuchi,56.3204,160.8454,295.46,42,99,4.31,RU,1686622194
91,deqen,29.9618,90.7188,284.17,76,91,0.11,CN,1686622194
92,chonchi,-42.6239,-73.775,277.3,96,17,0.95,CL,1686622194
93,geraldton,-28.779,114.6146,287.29,72,0,5.14,AU,1686622195
94,mont-dore,-22.2626,166.5662,299.1,99,3,5.34,NC,1686622195
95,nova vicosa,-17.8919,-39.3719,295.48,87,0,3.76,BR,1686622195
96,luderitz,-26.6481,15.1538,285.83,81,0,5.29,NA,1686622195
97,atafu village,-8.5421,-172.5159,301.81,75,45,6.71,TK,1686622196
98,ribeira grande,17.1825,-25.065,297.54,85,38,4.77,CV,1686622196
99,magadan,59.5638,150.8035,291.7,86,90,4.5,RU,1686622197
100,rabaul,-4.2004,152.163,303.27,68,13,4.53,PG,1686622197
101,shanwei,22.782,115.3475,302.47,70,99,1.2,CN,1686622197
102,hawaiian paradise park,19.5933,-154.9731,301.88,71,0,0.45,US,1686622197
103,murzuq,25.9155,13.9184,300.18,30,0,4.94,LY,1686622198
104,iskateley,67.6803,53.1512,281.49,68,69,3.86,RU,1686622198
105,tazovsky,67.4715,78.7162,274.0,93,100,8.12,RU,1686622198
106,melekeok village,7.4957,134.6367,297.46,94,100,4.12,PW,1686622198
107,loralai,30.3705,68.598,298.87,45,0,2.49,PK,1686622199
108,minas de marcona,-15.2119,-75.1103,285.47,85,83,8.36,PE,1686622199
109,keflavik,64.0049,-22.5624,281.41,87,20,1.03,IS,1686622199
110,vanino,49.0985,140.2531,284.05,92,100,1.02,RU,1686622199
111,walvis bay,-22.9575,14.5053,285.98,100,0,2.06,NA,1686621957
112,el abiodh sidi cheikh,32.893,0.5484,295.6,54,27,9.76,DZ,1686622200
113,wonju,37.3514,127.9453,298.04,43,42,2.02,KR,1686622200
114,qobustan,40.0824,49.4121,297.55,72,5,1.26,AZ,1686622201
115,hithadhoo,-0.6,73.0833,301.88,71,54,4.16,MV,1686622201
116,shumerlya,55.5005,46.4129,281.25,75,0,2.85,RU,1686622202
117,papatowai,-46.5607,169.4707,284.59,79,28,2.57,NZ,1686622202
118,pangai,-19.8147,-174.3542,295.6,79,91,6.23,TO,1686622202
119,petropavlovsk-kamchatsky,53.0444,158.6508,296.48,33,0,2.0,RU,1686622203
120,acapulco de juarez,16.8494,-99.9089,304.07,74,40,3.09,MX,1686622203
121,jalqani,12.4486,34.2186,301.0,62,100,3.91,SD,1686622204
122,whitehorse,60.7161,-135.0538,289.99,21,100,5.36,CA,1686622204
123,motygino,58.184,94.6934,289.27,57,72,3.61,RU,1686622204
124,saipan,15.2123,145.7545,303.23,100,40,5.66,MP,1686622205
125,xichang,27.8964,102.2634,292.78,65,100,1.22,CN,1686622205
126,nova sintra,14.8714,-24.6956,294.44,84,100,8.9,CV,1686622205
127,hampton bays,40.869,-72.5176,292.31,98,100,3.6,US,1686622206
128,avarua,-21.2075,-159.7755,299.18,78,100,6.69,CK,1686622206
129,bahia blanca,-38.7196,-62.2724,278.05,66,0,0.89,AR,1686621971
130,saguenay,48.4168,-71.0657,296.21,54,20,6.17,CA,1686621947
131,minot,48.2325,-101.2963,297.05,43,0,2.06,US,1686622207
132,mount pearl,47.5166,-52.7814,280.35,96,100,6.17,CA,1686622207
133,kapa'a,22.0752,-159.319,301.14,78,20,6.69,US,1686622207
134,ribeira grande,38.5167,-28.7,292.47,97,8,1.79,PT,1686621945
135,pelabuhanratu,-6.9873,106.5514,301.44,78,33,0.52,ID,1686621903
136,merke,42.8698,73.1846,296.49,36,60,1.5,KZ,1686622208
137,nar'yan-mar,67.6387,53.0037,281.44,69,76,3.88,RU,1686622208
138,grand falls-windsor,48.9332,-55.6649,283.43,88,95,1.41,CA,1686622208
139,kalmunai,7.409,81.8347,301.01,74,94,2.15,LK,1686622209
140,vila velha,-20.3297,-40.2925,297.12,90,20,4.12,BR,1686622209
141,silver city,32.7701,-108.2803,295.32,15,0,4.02,US,1686622209
142,pulandian,39.3953,121.9669,296.13,52,9,2.72,CN,1686622209
143,cairns city,-16.9207,145.7736,300.95,77,100,5.14,AU,1686622210
144,el daein,11.4619,26.1258,303.11,48,95,2.63,SD,1686622210
145,tongshan,34.1805,117.1571,303.6,34,50,0.66,CN,1686622210
146,trujillo,15.9167,-85.9542,300.32,81,85,3.6,HN,1686622211
147,quellon,-43.1182,-73.6166,275.29,100,75,1.03,CL,1686622211
148,carloforte,39.1408,8.3039,295.14,77,100,1.58,IT,1686622211
149,saint-philippe,-21.3609,55.7679,295.13,75,0,1.71,RE,1686622211
150,kattivakkam,13.2167,80.3167,304.2,76,68,3.87,IN,1686622212
151,umea,63.8284,20.2597,283.66,93,100,0.0,SE,1686622212
152,porto novo,17.0197,-25.0647,298.02,84,8,5.15,CV,1686622212
153,kodiak,57.7885,-152.4053,287.28,47,20,6.17,US,1686622212
154,burang,30.2956,81.1751,281.24,70,40,1.23,CN,1686622213
155,margate,-30.8636,30.3705,288.69,73,80,2.49,ZA,1686622213
156,lompoc,34.6392,-120.4579,292.6,80,100,3.13,US,1686622213
157,reggane,26.7158,0.1714,305.29,10,0,3.98,DZ,1686622214
158,ulladulla,-35.3591,150.4725,291.59,46,100,4.62,AU,1686622214
159,paracuru,-3.41,-39.0306,300.43,85,0,3.96,BR,1686622214
160,yaring,6.8662,101.3689,304.42,77,100,2.56,TH,1686622214
161,codrington,17.6333,-61.8333,300.98,80,2,9.28,AG,1686622215
162,vilhena,-12.7406,-60.1458,292.52,99,94,2.36,BR,1686622215
163,sao jose da coroa grande,-8.8978,-35.1478,298.14,84,18,4.88,BR,1686622215
164,puerto san carlos,24.7887,-112.105,291.74,77,15,7.91,MX,1686622215
165,belonia,23.2518,91.4541,302.19,80,64,4.42,IN,1686622216
166,llandudno,53.325,-3.8315,291.1,92,100,3.33,GB,1686622216
167,utrik,11.2278,169.8474,300.88,80,31,8.23,MH,1686622216
168,hotan,37.1075,79.9355,304.01,15,99,2.62,CN,1686622216
169,puri,19.7983,85.8249,300.34,69,97,1.98,IN,1686622217
170,opuwo,-18.0607,13.84,284.27,17,4,2.39,NA,1686621979
171,west plains,36.7281,-91.8524,290.61,72,0,2.06,US,1686622217
172,sisimiut,66.9395,-53.6735,272.68,86,21,3.05,GL,1686622217
173,jwaneng,-24.6017,24.7281,278.47,79,0,4.36,BW,1686622218
174,saratamata,-15.2903,167.9668,297.72,84,52,5.6,VU,1686622218
175,usogorsk,63.4106,48.6872,286.34,81,100,3.53,RU,1686622219
176,anadyr,64.7342,177.5103,290.13,48,0,4.0,RU,1686622219
177,port mathurin,-19.6833,63.4167,297.9,71,4,6.74,MU,1686622219
178,fale old settlement,-9.3852,-171.2468,301.6,77,12,6.53,TK,1686622220
179,hilo,19.7299,-155.0907,302.0,64,0,3.13,US,1686622220
180,namsos,64.4662,11.4957,286.1,82,100,3.09,NO,1686622220
181,enewetak,11.3474,162.3373,301.0,81,98,8.85,MH,1686622220
182,kataragama,6.4134,81.3346,300.12,70,100,7.3,LK,1686622221
183,pascagoula,30.3658,-88.5561,296.55,95,0,0.0,US,1686622162
184,trinity beach,-16.7888,145.6968,300.93,77,100,5.14,AU,1686622221
185,hermanus,-34.4187,19.2345,289.15,86,100,13.14,ZA,1686622221
186,dadukou,26.5479,101.7054,293.22,74,94,0.24,CN,1686622222
187,afaahiti,-17.744,-149.3244,302.07,69,19,8.67,PF,1686622222
188,kingston,-29.0546,167.9663,292.38,63,40,5.66,NF,1686622222
189,tolanaro,-25.0325,46.9833,291.12,89,3,2.03,MG,1686622223
190,constantia,-34.0314,18.4183,287.75,76,100,4.02,ZA,1686622223
191,fangshan,39.687,115.9966,302.71,25,29,2.45,CN,1686622223
192,buala,-8.145,159.5921,302.61,73,31,2.87,SB,1686622223
193,hadibu,12.6488,54.019,301.31,81,100,9.7,YE,1686622224
194,maturin,9.7457,-63.1832,296.53,96,86,2.43,VE,1686622224
195,cable beach,-17.961,122.2127,300.08,32,16,5.66,AU,1686622224
196,la passe,-4.3481,55.8327,299.8,76,40,7.62,SC,1686622224
197,hobyo,5.3505,48.5268,298.88,84,67,10.09,SO,1686622225
198,badger,64.8,-147.5333,290.66,47,100,4.12,US,1686622225
199,dubbo,-32.243,148.6048,290.27,67,0,4.63,AU,1686622225
200,port glaud,-4.6667,55.4167,299.9,74,83,7.44,SC,1686622225
201,hovd,44.6702,102.1749,298.16,19,25,6.85,MN,1686622226
202,nizao,18.247,-70.2105,299.14,79,0,3.77,DO,1686622226
203,san patricio,19.2253,-104.7045,300.15,83,75,7.72,MX,1686622226
204,new plymouth,-39.0667,174.0833,288.46,100,1,1.23,NZ,1686622080
205,richards bay,-28.783,32.0377,289.34,89,2,2.15,ZA,1686622227
206,baotou,40.5834,110.0167,297.89,19,0,0.16,CN,1686622227
207,cabo san lucas,22.8909,-109.9124,303.32,39,0,2.57,MX,1686622227
208,molchanovo,57.5817,83.7692,284.39,59,64,3.37,RU,1686622227
209,terra nova,-12.3667,-40.6667,290.12,88,0,1.34,BR,1686622228
210,gadzhiyevo,69.2551,33.3362,282.5,70,100,3.79,RU,1686622228
211,tshabong,-26.05,22.45,279.78,73,0,3.98,BW,1686622228
212,santyoku,37.4406,129.1708,295.03,71,82,2.3,KR,1686622229
213,kathwana,-0.3314,37.8686,291.35,80,8,1.54,KE,1686622229
214,doka,13.5167,35.7667,299.82,59,100,2.68,SD,1686622229
215,talnakh,69.4865,88.3972,281.6,73,97,1.83,RU,1686622229
216,merizo village,13.2658,144.6691,304.0,79,12,7.78,GU,1686622230
217,tchintabaraden,15.8969,5.7985,302.39,50,43,2.89,NE,1686622230
218,qui nhon,13.7765,109.2237,302.36,68,100,3.1,VN,1686622230
219,la foa,-21.7108,165.8276,297.13,51,9,2.42,NC,1686622230
220,belyy yar,58.4447,85.0425,284.51,61,7,3.41,RU,1686622231
221,tocopilla,-22.092,-70.1979,289.21,75,24,4.38,CL,1686621977
222,uturoa,-16.7289,-151.4448,300.37,69,26,6.96,PF,1686622231
223,pangody,65.85,74.4859,277.06,66,6,7.4,RU,1686622231
224,puerto baquerizo moreno,-0.9017,-89.6102,299.47,82,24,5.39,EC,1686622232
225,sodo,6.86,37.7616,286.07,91,59,0.83,ET,1686622232
226,tralee,52.2704,-9.7026,288.51,94,87,0.92,IE,1686622232
227,castillos,-34.1987,-53.8592,282.23,69,98,2.61,UY,1686622232
228,yelizovo,53.1891,158.3814,297.25,33,0,2.0,RU,1686622233
229,shanga,11.2137,4.5794,299.38,76,75,1.85,NG,1686622233
230,scarborough,11.1823,-60.7353,300.64,81,41,8.01,TT,1686622233
231,tidjikja,18.5564,-11.4271,304.05,19,97,5.16,MR,1686622233
232,newman,-23.36,119.74,288.87,27,0,6.09,AU,1686621675
233,north bay,46.3168,-79.4663,291.54,93,100,1.34,CA,1686622234
234,pedernales,0.0717,-80.0525,298.95,91,94,2.86,EC,1686622234
235,georgetown,-7.9286,-14.4119,298.74,68,25,8.43,SH,1686622234
236,port saint john's,-31.6229,29.5448,287.79,71,82,2.22,ZA,1686622235
237,sarangani,5.4033,125.4636,302.14,69,45,3.33,PH,1686622235
238,zaki biam,7.5067,9.6104,296.03,89,98,1.66,NG,1686622235
239,ketchikan,55.3418,-131.6476,290.41,55,0,4.12,US,1686622236
240,djibouti,11.589,43.145,309.75,44,100,2.87,DJ,1686622236
241,hasaki,35.7333,140.8333,298.31,88,98,6.23,JP,1686622236
242,padre bernardo,-15.166,-48.2828,293.36,62,12,1.05,BR,1686622236
243,kailua-kona,19.6403,-155.9959,301.13,84,40,4.63,US,1686621910
244,mossel bay,-34.1831,22.1461,289.11,62,97,6.37,ZA,1686622237
245,aasiaat,68.7098,-52.8699,272.33,84,42,4.31,GL,1686622237
246,kiunga,-6.1219,141.2906,298.82,95,91,1.57,PG,1686622237
247,west island,-12.1568,96.8225,300.14,83,40,8.8,CC,1686622238
248,broome,-17.9554,122.2392,300.16,32,16,5.66,AU,1686622238
249,dudinka,69.4058,86.1778,281.83,61,80,2.73,RU,1686622238
250,yuzhno-kurilsk,44.0273,145.8615,284.47,97,100,3.39,RU,1686622238
251,pimenta bueno,-11.6725,-61.1936,295.3,98,99,1.66,BR,1686621953
252,st. john's,47.5649,-52.7093,280.81,96,100,6.17,CA,1686622073
253,roma,-26.5674,148.7875,294.82,31,85,2.81,AU,1686622239
254,haiku-pauwela,20.9219,-156.3051,303.16,48,0,9.77,US,1686622239
255,rongelap,11.1635,166.8941,301.04,80,99,7.92,MH,1686622239
256,nuuk,64.1835,-51.7216,273.49,100,100,2.06,GL,1686622240
257,sterling,60.5372,-150.7647,282.39,71,75,3.6,US,1686622240
258,ararat,-37.2854,142.9273,282.7,81,100,6.77,AU,1686622240
259,pryamitsyno,51.6561,35.9314,285.45,83,91,4.2,RU,1686622241
260,piton saint-leu,-21.2196,55.3151,293.93,73,0,2.06,RE,1686622241
261,la'ie,21.6455,-157.9225,304.12,69,0,1.79,US,1686622241
262,christchurch,-43.5333,172.6333,286.19,77,75,4.12,NZ,1686621991
263,kavaratti,10.5669,72.642,302.66,75,100,9.51,IN,1686622242
264,antofagasta,-23.6524,-70.3954,288.53,81,46,2.63,CL,1686622242
265,lihue,21.9812,-159.3721,300.73,73,20,6.69,US,1686622242
266,vaghodia,22.3051,73.4002,302.05,74,26,5.14,IN,1686622243
267,nema,16.617,-7.2565,303.78,43,100,3.83,MR,1686622243
268,zhigalovo,54.8106,105.1581,285.75,76,100,0.31,RU,1686622243
269,lloydminster,53.2724,-110.0226,296.78,52,7,1.93,CA,1686622244
270,narasannapeta,18.4143,84.0446,306.69,47,37,3.1,IN,1686622244
271,orapa,-21.3115,25.3764,284.79,49,50,6.92,BW,1686622244
272,tuchkovo,55.6011,36.4681,281.04,83,2,2.33,RU,1686622244
273,isangel,-19.5417,169.2817,296.12,69,77,5.39,VU,1686622245
274,arraial do cabo,-22.9661,-42.0278,295.19,91,4,3.38,BR,1686622245
275,mata de sao joao,-12.5303,-38.2992,300.01,97,40,0.33,BR,1686622245
276,pisco,-13.7103,-76.2054,293.09,77,2,3.09,PE,1686622245
277,gaiman,-43.2897,-65.4929,277.89,54,100,1.95,AR,1686622246
278,usinsk,65.9939,57.5281,282.7,88,88,6.42,RU,1686622246
279,suncho corral,-27.9336,-63.4294,282.14,38,99,2.14,AR,1686622246
280,khandyga,62.6533,135.5667,284.62,66,100,2.13,RU,1686622246
281,altai,46.3722,96.2583,286.94,54,73,0.61,MN,1686622247
282,severo-yeniseyskiy,60.3755,93.0302,282.54,74,98,2.62,RU,1686622247
283,khuzdar,27.8119,66.611,300.46,45,1,1.01,PK,1686622247
284,paita,-5.0892,-81.1144,296.35,78,0,7.81,PE,1686622248
285,alta,69.9689,23.2717,282.14,65,40,6.17,NO,1686622248
286,shaffa,10.5067,12.3332,295.56,86,100,1.2,NG,1686622248
287,chabahar,25.2919,60.643,302.77,74,99,3.17,IR,1686622248
288,faya-largeau,17.9257,19.1043,305.16,36,5,1.79,TD,1686622249
289,dedovichi,57.5517,29.9502,281.82,75,42,1.57,RU,1686622249
290,karatau,43.1787,70.4677,294.27,22,100,1.84,KZ,1686622249
291,san fernando,24.8475,-98.1483,300.69,81,0,6.14,MX,1686622249
292,santana,32.8,-16.8833,289.82,84,20,3.09,PT,1686622250
293,udachny,66.4299,112.4021,289.48,33,19,7.04,RU,1686622250
294,catanzaro,38.8825,16.6009,292.6,82,28,3.38,IT,1686622250
295,talcahuano,-36.7249,-73.1168,283.16,53,0,3.09,CL,1686622250
296,wainwright,52.8348,-110.8534,296.81,57,68,1.57,CA,1686622251
297,khovd,48.0056,91.6419,289.24,38,1,2.07,MN,1686622251
298,at taj,24.2049,23.2857,303.21,22,0,6.75,LY,1686622251
299,talata mafara,12.5684,6.0623,300.65,65,70,4.36,NG,1686622251
300,sagar,14.165,75.029,296.7,87,63,3.61,IN,1686622252
301,lata,-10.725,165.7972,301.33,80,36,5.52,SB,1686622252
302,pizarro,4.9533,-77.366,299.82,82,89,0.96,CO,1686622252
303,tongchuanshi,35.0747,109.085,298.81,35,43,1.85,CN,1686622252
304,puerto aysen,-45.403,-72.6918,274.27,97,100,1.33,CL,1686622253
305,airuk,7.2772,168.8203,301.68,75,100,8.33,MH,1686622253
306,pervomaysk,48.0448,30.8478,285.96,91,95,5.19,UA,1686622253
307,kerikeri,-35.2268,173.9474,290.32,66,1,3.32,NZ,1686622253
308,praia da vitoria,38.7333,-27.0667,291.83,92,18,2.68,PT,1686622254
309,wotho,10.1657,166.0102,301.25,79,82,8.5,MH,1686622254
310,baharly,38.4362,57.4316,303.37,18,0,1.28,TM,1686622254
311,san julian,-49.3077,-67.7278,275.95,66,100,3.8,AR,1686622019
312,aykhal,65.9338,111.4834,287.37,36,13,7.38,RU,1686622255
313,boryeong,36.3493,126.5977,295.36,57,100,2.13,KR,1686622255
314,jeddah,21.4901,39.1862,302.15,47,0,5.07,SA,1686622255
315,kuressaare,58.2481,22.5039,283.12,83,0,1.54,EE,1686622255
316,kone,-21.0595,164.8658,299.46,47,10,2.1,NC,1686622255
317,bargara,-24.8148,152.4626,299.36,59,0,1.21,AU,1686622256
318,ar rutbah,33.0372,40.2859,295.74,43,0,3.39,IQ,1686622256
319,rehoboth,-23.317,17.09,278.66,64,0,1.44,NA,1686622256
320,fethiye,36.6404,29.1276,290.12,74,6,0.91,TR,1686622257
321,ar ruways,24.1103,52.7306,305.18,51,100,4.71,AE,1686622257
322,colonia,9.5164,138.1217,300.77,77,98,1.87,FM,1686622257
323,al ghayzah,16.2079,52.176,301.1,92,100,1.16,YE,1686622257
324,ust'-kulom,61.6864,53.6902,284.91,76,93,2.96,RU,1686622257
325,neiafu,-18.6506,-173.984,297.53,83,75,3.09,TO,1686622258
326,kununurra,-15.7783,128.7421,303.12,26,28,5.14,AU,1686622258
327,'ohonua,-21.3333,-174.95,296.3,71,100,0.62,TO,1686622258
328,santa elena de uairen,4.6023,-61.1103,293.04,93,73,1.1,VE,1686622258
329,tateyama,34.9833,139.8667,296.64,82,80,2.81,JP,1686622259
330,raja,8.4675,25.6783,293.96,96,48,2.15,SS,1686622259
331,san jose village,14.9682,145.62,304.55,81,47,7.87,MP,1686622259
332,masterton,-40.9597,175.6575,284.75,68,17,3.55,NZ,1686622259
333,bure,10.7,37.0667,288.3,86,100,1.03,ET,1686622260
334,lerdo de tejada,18.6294,-95.5197,302.24,78,1,6.93,MX,1686622260
335,ribadesella,43.4615,-5.0596,291.45,90,81,2.61,ES,1686622260
336,jayapura,-2.5337,140.7181,303.44,96,99,2.75,ID,1686622261
337,kenora,49.7674,-94.4899,291.88,58,22,1.51,CA,1686622261
338,bermejo,-22.7321,-64.3372,282.43,45,93,0.86,BO,1686622261
339,ghat,24.9633,10.18,303.17,18,1,1.63,LY,1686622261
340,port douglas,-16.4838,145.4673,297.5,73,34,2.96,AU,1686622262
341,kirkland lake,48.1446,-80.0377,289.31,94,100,1.54,CA,1686622262
342,dunedin,-45.8742,170.5036,285.82,64,77,1.79,NZ,1686622230
343,campbell river,50.0163,-125.2446,300.36,28,40,3.6,CA,1686622262
344,bamboo flat,11.7,92.7167,301.2,89,100,2.57,IN,1686622263
345,ulsteinvik,62.3432,5.8487,288.1,81,100,0.45,NO,1686622263
346,coquimbo,-29.9533,-71.3395,284.08,81,100,1.54,CL,1686622263
347,shalqar,47.8333,59.6,298.61,20,88,3.47,KZ,1686622264
348,notodden,59.5594,9.2585,289.26,70,93,0.5,NO,1686622264
349,saint-remi,45.2668,-73.6159,297.12,69,100,3.72,CA,1686622264
350,bonthe,7.5264,-12.505,297.93,88,100,2.46,SL,1686622264
351,tura,64.2777,100.2185,288.33,45,100,6.33,RU,1686622265
352,abidjan,5.3544,-4.0017,298.87,89,20,3.09,CI,1686622265
353,kandiari,26.9155,68.5219,306.35,49,100,6.58,PK,1686622266
354,forster,-32.1814,152.5171,293.9,49,100,3.31,AU,1686622267
355,skowhegan,44.7651,-69.7192,292.02,91,99,1.23,US,1686622267
356,dobryanka,58.4644,56.4127,282.41,62,8,1.32,RU,1686622267
357,mar del plata,-38.0,-57.56,280.42,90,94,1.34,AR,1686622077
358,anori,-3.7728,-61.6442,297.67,88,19,1.31,BR,1686622268
359,simenqian,27.4872,110.8861,294.02,94,100,0.76,CN,1686622268
360,ghanzi,-21.6979,21.6458,280.17,73,0,3.26,BW,1686622268
361,sakakah,29.9697,40.2064,298.76,27,0,2.75,SA,1686622269
362,rawson,-43.3002,-65.1023,279.48,51,98,2.49,AR,1686622269
363,port augusta,-32.496,137.7728,289.42,51,8,8.2,AU,1686622269
364,igarka,67.4655,86.6027,282.66,72,48,5.65,RU,1686622270
365,gao,16.2717,-0.0447,301.27,57,36,5.51,ML,1686622270
366,fortuna,40.5982,-124.1573,285.74,96,100,5.14,US,1686622105
367,kirakira,-10.4544,161.9204,302.4,74,18,3.36,SB,1686622271
368,pariaman,-0.619,100.12,301.85,71,53,0.39,ID,1686622271
369,jindrichuv hradec,49.144,15.003,281.81,93,0,0.45,CZ,1686622271
370,espita,21.011,-88.3068,301.58,72,5,2.64,MX,1686622272
371,kamaishi,39.2769,141.868,294.77,81,91,2.18,JP,1686622272
372,tsiombe,-25.3,45.4833,290.24,96,13,2.73,MG,1686622272
373,verkhniy baskunchak,48.2256,46.7217,297.37,36,98,3.94,RU,1686622273
374,rabo de peixe,37.8102,-25.5826,292.19,100,75,5.14,PT,1686622273
375,hamilton,32.2949,-64.783,297.01,95,75,7.2,BM,1686622273
376,sur,22.5667,59.5289,305.78,46,100,3.03,OM,1686622273
377,baiyin,36.547,104.1702,295.01,23,0,0.42,CN,1686622274
378,puerto deseado,-47.7481,-65.8881,277.44,62,100,4.76,AR,1686622015
379,alagoinha,-6.95,-35.545,294.35,95,20,2.17,BR,1686622274
380,boyolangu,-8.1181,111.8935,299.86,77,99,3.81,ID,1686622274
381,howard springs,-12.4958,131.0445,303.05,30,100,4.68,AU,1686622275
382,banjarmasin,-3.3199,114.5908,303.25,66,95,1.74,ID,1686622275
383,lerwick,60.1534,-1.1443,285.15,93,100,3.16,GB,1686622275
384,port-vila,-17.7365,168.3137,297.78,78,99,5.8,VU,1686622275
385,berbera,10.4396,45.0143,306.33,47,95,8.06,SO,1686622276
386,turpan,42.9477,89.1789,308.11,16,100,3.39,CN,1686622276
387,ta`u,-14.2336,-169.5144,300.75,74,43,7.47,AS,1686622276
388,tzucacab,20.0724,-89.0502,298.61,90,54,0.11,MX,1686622276
389,turkestan,43.2973,68.2518,300.79,14,0,9.0,KZ,1686622277
390,tofol,5.3248,163.0078,303.03,70,100,1.54,FM,1686622277
391,kiama,-34.6683,150.8522,295.49,57,46,2.86,AU,1686622277
392,beau vallon,-20.4189,57.6953,296.6,80,24,4.38,MU,1686622068
393,mianwali,32.5776,71.5285,309.93,22,0,1.5,PK,1686622278
394,port alfred,-33.586,26.8833,284.41,76,100,1.34,ZA,1686622278
395,crane,13.1049,-59.4486,299.33,89,40,3.09,BB,1686622278
396,fedorovka,51.221,51.9572,288.86,65,97,9.33,KZ,1686622278
397,bangassou,4.7413,22.8184,293.41,98,100,0.79,CF,1686622279
398,fort bragg,39.4457,-123.8053,293.08,86,84,0.48,US,1686622277
399,kill devil hills,36.0307,-75.676,295.36,90,40,5.66,US,1686622279
400,baidoa,3.1138,43.6498,293.6,92,98,5.74,SO,1686622279
401,vinkovci,45.2883,18.8047,286.07,87,0,1.03,HR,1686622280
402,san felipe,31.0247,-114.8392,298.82,51,0,3.66,MX,1686622280
403,tvoroyri,61.5556,-6.8111,282.86,67,87,1.77,FO,1686622280
404,arica,-18.4746,-70.2979,293.19,64,100,2.06,CL,1686622281
405,ciudad acuna,29.3232,-100.9522,307.31,58,0,2.57,MX,1686622281
406,rouissat,31.9243,5.3502,303.74,22,0,1.91,DZ,1686622281
407,wanganui,-39.9333,175.05,287.37,74,5,1.79,NZ,1686622281
408,karapinar,37.716,33.5506,288.68,76,93,0.46,TR,1686622282
409,broken hill,-31.9652,141.4512,286.67,55,0,8.6,AU,1686622282
410,anloga,5.7947,0.8973,299.29,70,97,5.34,GH,1686622282
411,la ronge,55.1001,-105.2842,291.29,55,6,1.54,CA,1686622283
412,longquan,24.6719,102.1613,292.33,79,100,1.17,CN,1686622283
413,san antonio de pale,-1.4068,5.6318,297.19,89,99,3.4,GQ,1686622283
414,callao,-12.0566,-77.1181,294.12,78,75,8.75,PE,1686622283
415,chui,-33.6979,-53.4593,281.74,74,94,3.01,UY,1686622284
416,carnarvon,-30.9683,22.133,276.54,93,28,7.19,ZA,1686622284
417,ambala,30.361,76.7978,307.61,29,0,0.65,IN,1686622284
418,padangsidempuan,1.3795,99.2715,300.2,77,66,0.22,ID,1686622285
419,andovoranto,-18.9544,49.1094,292.98,93,16,2.34,MG,1686622285
420,kolonia town,6.964,158.206,305.21,74,100,4.12,FM,1686622285
421,glace bay,46.197,-59.957,285.81,85,40,2.68,CA,1686622285
422,antsiranana,-12.3173,49.2919,294.44,88,2,3.43,MG,1686622286
423,mutuali,-14.8706,37.0044,287.88,60,6,0.74,MZ,1686622286
424,ilam,26.9094,87.9282,296.02,76,50,0.55,NP,1686622286
425,zaqatala,41.6316,46.6448,294.35,64,20,6.17,AZ,1686622287
426,blenheim,-41.516,173.9528,286.77,63,7,0.89,NZ,1686622287
427,brewton,31.1052,-87.0722,296.25,84,32,1.89,US,1686622287
428,gunjur,13.2019,-16.7339,301.19,83,75,3.09,GM,1686622026
429,labuan lombok,-8.5,116.6667,301.34,62,30,1.93,ID,1686622288
430,amahai,-3.3398,128.9198,300.37,82,98,3.38,ID,1686622288
431,disa,24.2561,72.1793,302.74,70,64,7.29,IN,1686622288
432,nieuw amsterdam,5.8857,-55.0887,299.33,89,100,3.79,SR,1686622289
433,remire-montjoly,4.9167,-52.2667,298.17,94,100,1.03,GF,1686622290
434,touros,-5.1989,-35.4608,297.33,89,3,4.52,BR,1686622290
435,saint-francois,16.2524,-61.2733,299.13,79,5,7.97,GP,1686622290
436,cadale,2.7603,46.3222,299.14,86,27,7.42,SO,1686622290
437,sitka,57.0532,-135.3309,285.09,62,75,6.17,US,1686622291
438,union choco,8.084,-77.5351,298.06,98,91,0.55,PA,1686622291
439,omidiyeh,30.7628,49.7023,307.57,20,0,2.24,IR,1686622291
440,whyalla stuart,-33.0249,137.5247,289.05,51,6,9.25,AU,1686622292
441,nogliki,51.7992,143.1387,280.47,95,100,2.8,RU,1686622292
442,pathein,16.7792,94.7321,297.86,97,100,5.56,MM,1686622292
443,tsarychanka,48.937,34.4786,285.28,87,100,3.88,UA,1686622293
444,parintins,-2.6283,-56.7358,297.65,91,86,1.2,BR,1686622293
445,santa ana,18.4699,122.1478,302.07,71,100,2.85,PH,1686622293
446,nahiyat ash shinafiyah,31.5838,44.6468,306.16,21,0,4.89,IQ,1686622293
447,naantali,60.4674,22.0243,286.4,93,0,0.51,FI,1686622294
448,palu,-0.9083,119.8708,301.34,86,99,0.38,ID,1686622294
449,santa rosa,-28.2632,-58.1189,278.5,53,60,3.05,AR,1686622294
450,awjilah,29.1081,21.2869,296.58,55,0,5.63,LY,1686622295
451,praia,14.9315,-23.5125,298.42,73,0,5.14,CV,1686622295
452,fort mcmurray,56.7268,-111.381,292.92,55,0,1.54,CA,1686622292
453,kulhudhuffushi,6.6221,73.07,301.96,79,100,7.88,MV,1686622295
454,zyryanskoye,56.8306,86.6273,285.41,67,31,2.24,RU,1686622296
455,'ain el melh,34.8415,4.1638,291.4,78,22,3.11,DZ,1686622296
456,island harbour,18.256,-63.0102,301.57,79,0,9.8,AI,1686622296
457,gorgan,36.8427,54.4439,300.13,56,0,0.33,IR,1686622296
458,nsanje,-16.92,35.262,291.22,59,2,0.89,MW,1686622297
459,gornyye klyuchi,45.2422,133.506,294.33,68,89,1.53,RU,1686622297
460,fuvahmulah,-0.2988,73.424,301.82,72,27,4.37,MV,1686622297
461,san juan de miraflores,-3.7761,-73.2814,297.11,94,75,0.51,PE,1686622297
462,yeniseysk,58.4494,92.1797,287.5,59,21,3.57,RU,1686622298
463,de aar,-30.6497,24.0123,276.38,90,47,3.99,ZA,1686622298
464,devinuwara,5.9283,80.5888,300.62,82,97,5.46,LK,1686622298
465,harper,4.3782,-7.7108,298.53,77,96,3.79,LR,1686622299
466,radomir,42.5457,22.9655,287.18,96,100,0.47,BG,1686622299
467,nanping,26.645,118.1736,298.43,87,100,0.36,CN,1686622299
468,santa ana de yacuma,-13.7441,-65.4269,285.85,93,100,5.64,BO,1686622299
469,tabou,4.423,-7.3528,298.4,76,94,3.42,CI,1686622300
470,westport,53.8,-9.5167,288.61,100,96,1.14,IE,1686622300
471,lubuklinggau,-3.2945,102.8614,301.8,66,14,0.98,ID,1686622300
472,al bawiti,28.3492,28.8659,300.48,34,80,4.57,EG,1686622301
473,polyarnyy,69.1989,33.4478,282.41,71,99,3.42,RU,1686622301
474,virton,49.5682,5.5326,289.84,69,0,3.13,BE,1686622301
475,flying fish cove,-10.4217,105.6791,300.97,78,40,6.17,CX,1686622301
476,ryotsu-minato,38.0782,138.4394,295.96,77,29,1.19,JP,1686622302
477,sarmiento,-45.5882,-69.07,274.9,69,10,1.06,AR,1686622302
478,nayoro,44.3506,142.4578,291.93,90,100,1.75,JP,1686622302
479,happy valley-goose bay,53.3038,-60.3258,288.33,47,75,2.06,CA,1686622302
480,ourilandia do norte,-6.7547,-51.0839,296.0,80,0,1.75,BR,1686622303
481,chinsali,-10.5414,32.0816,287.24,74,41,1.2,ZM,1686622303
482,kafue,-15.7691,28.1814,290.75,40,69,0.72,ZM,1686622303
483,daru,-9.0779,143.2089,299.8,87,98,6.16,PG,1686622303
484,aswan,24.0908,32.8994,302.77,24,0,3.09,EG,1686622304
485,ugoofaaru,5.6681,73.0302,301.87,78,100,7.62,MV,1686622304
486,buka,-5.4326,154.671,302.24,72,18,0.74,PG,1686622304
487,kili,5.6439,169.1211,300.71,81,100,7.0,MH,1686622304
488,queenstown,-45.0302,168.6627,283.76,69,23,0.42,NZ,1686622289
489,ende,-8.8432,121.6623,300.75,64,21,3.44,ID,1686622305
490,banda aceh,5.5378,95.3272,302.68,64,63,4.48,ID,1686621754
491,kenai,60.5544,-151.2583,282.67,68,100,3.6,US,1686622306
492,chos malal,-37.3781,-70.2709,277.49,32,0,0.52,AR,1686622306
493,cova figueira,14.8905,-24.2934,295.68,76,72,6.39,CV,1686622306
494,houghton,47.1219,-88.569,283.21,95,100,4.63,US,1686622306
495,petrovsk-zabaykal'skiy,51.2753,108.843,298.08,42,94,2.21,RU,1686622307
496,lembar,-8.7264,116.0744,302.71,65,7,4.82,ID,1686622307
497,zemio,5.0314,25.1361,293.17,99,76,1.39,CF,1686622307
498,salekhard,66.53,66.6019,280.45,50,100,3.93,RU,1686622307
499,horta,38.5374,-28.6262,292.43,97,18,1.34,PT,1686622308
500,rio grande,-53.7877,-67.7095,274.2,80,0,6.17,AR,1686622308
501,lujan,-34.5703,-59.105,279.23,82,2,2.29,AR,1686622308
502,novosin'kovo,56.3774,37.3287,282.21,76,3,2.21,RU,1686622308
503,gorontalo,0.5375,123.0625,299.4,90,98,1.41,ID,1686622309
504,midvagur,62.0511,-7.1939,279.61,87,100,0.51,FO,1686622309
505,al kharijah,25.4514,30.5464,302.9,26,0,1.45,EG,1686622309
506,shubarshi,48.5802,57.1829,298.51,21,100,3.19,KZ,1686622309
507,wendell,35.781,-78.3697,295.83,94,36,3.01,US,1686622310
508,xilin hot,43.9667,116.0333,296.31,35,3,3.45,CN,1686622310
509,karratha,-20.7377,116.8463,295.61,31,13,9.67,AU,1686622310
510,kapuskasing,49.4169,-82.4331,288.47,81,100,1.71,CA,1686622142
511,huocheng,44.0531,80.8717,300.66,15,100,2.34,CN,1686622311
512,noumea,-22.2741,166.4488,298.97,99,3,6.58,NC,1686622311
513,vila franca do campo,37.7167,-25.4333,292.38,98,100,5.08,PT,1686622311
514,the bottom,17.6259,-63.2492,299.46,78,0,10.39,BQ,1686622312
515,pekalongan,-6.8886,109.6753,301.72,74,43,0.93,ID,1686622312
516,howrah,-42.8873,147.4055,286.19,77,75,2.57,AU,1686622312
517,assai,-23.3733,-50.8414,292.07,99,95,0.82,BR,1686622312
518,zouerate,22.7354,-12.4713,299.92,34,0,7.25,MR,1686622313
519,fuyang,32.9,115.8167,303.19,36,62,2.47,CN,1686622313
520,khamharia,20.976,82.2512,308.04,34,61,5.28,IN,1686622313
521,linxia chengguanzhen,35.6003,103.2064,292.46,43,46,0.13,CN,1686622314
522,pierre,44.3683,-100.351,296.64,40,0,0.45,US,1686622243
523,karkira,36.9292,6.5856,294.98,78,100,4.55,DZ,1686622314
524,caleta de carquin,-11.0925,-77.6267,293.32,81,31,6.87,PE,1686622314
525,katsuura,35.1462,140.3151,296.56,83,86,4.8,JP,1686622315
526,morant bay,17.8815,-76.4093,300.77,85,23,5.0,JM,1686622315
527,birao,10.2849,22.7882,297.42,82,100,2.05,CF,1686622315
528,tonj,7.2739,28.6775,296.44,68,83,1.67,SS,1686622315
529,lazarevskoye,43.9089,39.3314,293.26,88,100,1.35,RU,1686622316
530,ronne,55.1009,14.7066,286.1,71,9,5.66,DK,1686622316
531,assab,13.0092,42.7394,305.16,65,100,6.87,ER,1686622316
532,bryne,58.7354,5.6477,288.58,72,100,0.0,NO,1686622316
533,grand-lahou,5.2507,-5.0033,296.89,84,99,2.39,CI,1686622317
534,aldan,58.6102,125.3961,276.43,96,100,1.42,RU,1686622317
535,vera cruz,-12.6333,-41.0333,291.86,77,0,1.05,BR,1686622317
536,toki,35.35,137.1833,301.62,61,100,2.37,JP,1686622317
537,zaltan,32.947,11.8667,297.27,54,19,3.67,LY,1686622318
538,constitucion,-35.3282,-72.4134,281.07,62,0,2.4,CL,1686622066
539,marsh harbour,26.5412,-77.0636,300.45,78,36,4.08,BS,1686622318
540,potosi,-19.5836,-65.7531,275.74,21,3,1.84,BO,1686622047
541,mount gambier,-37.8318,140.7792,285.23,82,100,4.85,AU,1686622319
542,kemijarvi,66.7131,27.4306,284.1,73,71,4.19,FI,1686622319
543,sheregesh,52.9209,87.9869,289.93,65,17,1.37,RU,1686622319
544,bashmakovo,53.2133,43.0342,282.68,71,100,7.12,RU,1686622319
545,miquelon,47.0975,-56.3814,285.15,84,34,5.24,PM,1686622320
546,settat,33.001,-7.6166,291.03,83,100,1.8,MA,1686622320
547,padang,-0.9492,100.3543,301.88,71,88,0.62,ID,1686622320
548,lakhipur,24.7928,93.0091,299.56,90,88,1.3,IN,1686622320
549,delesti,46.7,27.55,284.49,85,100,4.87,RO,1686622321
550,zheshart,62.0731,49.5734,284.72,89,99,2.46,RU,1686622321
551,brasileia,-11.0161,-68.7481,295.45,99,99,1.95,BR,1686622321
552,monki,53.405,22.7979,282.43,95,100,4.74,PL,1686622322
553,szolnok,47.1833,20.2,285.33,84,0,3.09,HU,1686622322
554,farasan,16.7022,42.1183,305.58,69,100,11.05,SA,1686622322
555,lensk,60.7253,114.9278,288.59,28,4,1.92,RU,1686622323
556,protaras,35.0125,34.0583,294.81,94,6,2.68,CY,1686622323
557,tamanrasset,22.785,5.5228,300.1,32,20,1.54,DZ,1686622323
558,hafar al-batin,28.4328,45.9708,304.18,19,0,2.64,SA,1686622323
559,tataouine,32.9297,10.4518,297.95,44,62,3.04,TN,1686622324
560,nizhneangarsk,55.7933,109.5803,286.91,45,100,3.42,RU,1686622324
561,veraval,20.9077,70.3679,302.17,84,100,13.23,IN,1686622324
562,wabag,-5.4912,143.7215,293.07,76,89,1.87,PG,1686622325
563,tamazulapam villa del progreso,17.6771,-97.5732,293.68,45,93,3.5,MX,1686622325
564,zaozersk,69.4005,32.4476,282.85,64,98,6.88,RU,1686622325
565,la sarre,48.8002,-79.1996,288.18,88,100,2.23,CA,1686622325
566,baiquan,47.6061,126.0848,299.93,38,0,3.32,CN,1686622326
567,quelimane,-17.8786,36.8883,294.12,94,0,2.06,MZ,1686622326
568,saint-louis,16.0179,-16.4896,299.14,78,0,2.06,SN,1686622326
569,lazaro cardenas,30.5282,-115.9262,290.8,77,13,6.68,MX,1686622327
570,moose jaw,50.4001,-105.5345,300.29,22,35,2.06,CA,1686622327
571,eraan,9.0629,117.7016,303.96,64,100,1.1,PH,1686622328
572,ancud,-41.8709,-73.8203,277.89,90,41,2.6,CL,1686622062
573,chernyshevskiy,63.016,112.469,288.89,31,2,1.07,RU,1686622328
574,jiangzi,28.9203,89.5996,285.56,47,66,1.65,CN,1686622328
575,koulamoutou,-1.1367,12.464,294.75,97,100,0.48,GA,1686622329
576,lethem,3.3833,-59.8,298.32,82,32,2.22,GY,1686622329
577,mariental,-24.6333,17.9667,280.23,56,0,0.45,NA,1686622329
578,puerto real,18.075,-67.1871,301.53,69,5,3.04,PR,1686622329
579,ramos arizpe,25.5393,-100.9474,304.67,28,0,5.14,MX,1686622330
580,smithers,54.7804,-127.1743,295.16,38,98,3.6,CA,1686622213
581,prince rupert,54.3151,-130.321,286.98,84,100,8.23,CA,1686622330
582,laojunmiao,39.8333,97.7333,298.04,16,0,7.84,CN,1686622039
583,dawson creek,55.7576,-120.2358,295.84,61,60,2.11,CA,1686622043
584,alotau,-10.3151,150.4574,299.74,90,76,3.48,PG,1686622331
585,kindu,-2.9437,25.9224,293.67,93,27,0.34,CD,1686622331
586,bidur,4.1167,101.2833,302.32,68,65,1.44,MY,1686622331
587,maisi,20.2467,-74.1518,300.54,88,52,4.95,CU,1686622331
588,hurghada,27.2574,33.8129,302.17,24,0,0.0,EG,1686622329
589,jiashan,30.8492,120.9258,299.37,68,100,2.64,CN,1686622332
590,feodosiya,45.032,35.3815,291.53,87,100,1.42,UA,1686622332
591,yambio,4.5708,28.3942,292.05,97,77,1.57,SS,1686622333
592,axim,4.8664,-2.2418,298.32,70,77,2.6,GH,1686622333
593,san andres,12.5832,-81.7064,302.1,84,20,4.63,CO,1686622333
594,zuwarah,32.9312,12.082,296.89,61,5,3.74,LY,1686622333
595,fremont,41.4334,-96.4981,294.34,57,0,2.06,US,1686622198
596,prince george,53.9166,-122.753,299.84,31,40,2.57,CA,1686622334
597,saudarkrokur,65.7461,-19.6394,282.08,81,9,3.01,IS,1686622334
598,brezovica pri ljubljani,46.0333,14.4,286.69,93,51,0.76,SI,1686622334
599,gashua,12.874,11.0406,304.29,46,18,2.36,NG,1686622335
600,heyuan,23.7333,114.6833,304.99,62,33,0.98,CN,1686622335
601,santa marta de ortigueira,43.6833,-7.85,289.55,95,100,3.17,ES,1686622335
602,olinda,-8.0089,-34.8553,300.0,78,75,3.09,BR,1686622335
